[
  {
    "type": "Feature",
    "geometry": {
      "type": "Point",
      "coordinates": [
        -73.9249,
        40.6943
      ]
    },
    "properties": {
      "name": "New York",
      "country": "United States",
      "population": 18832416
    }
  },
  {
    "type": "Feature",
    "geometry": {
      "type": "Point",
      "coordinates": [
        -118.4068,
        34.1141
      ]
    },
    "properties": {
      "name": "Los Angeles",
      "country": "United States",
      "population": 11885717
    }
  },
  {
    "type": "Feature",
    "geometry": {
      "type": "Point",
      "coordinates": [
        -87.6866,
        41.8375
      ]
    },
    "properties": {
      "name": "Chicago",
      "country": "United States",
      "population": 8489066
    }
  },
  {
    "type": "Feature",
    "geometry": {
      "type": "Point",
      "coordinates": [
        -80.2101,
        25.784
      ]
    },
    "properties": {
      "name": "Miami",
      "country": "United States",
      "population": 6113982
    }
  },
  {
    "type": "Feature",
    "geometry": {
      "type": "Point",
      "coordinates": [
        -95.3885,
        29.786
      ]
    },
    "properties": {
      "name": "Houston",
      "country": "United States",
      "population": 6046392
    }
  },
  {
    "type": "Feature",
    "geometry": {
      "type": "Point",
      "coordinates": [
        -96.7667,
        32.7935
      ]
    },
    "properties": {
      "name": "Dallas",
      "country": "United States",
      "population": 5843632
    }
  },
  {
    "type": "Feature",
    "geometry": {
      "type": "Point",
      "coordinates": [
        -75.1339,
        40.0077
      ]
    },
    "properties": {
      "name": "Philadelphia",
      "country": "United States",
      "population": 5696588
    }
  },
  {
    "type": "Feature",
    "geometry": {
      "type": "Point",
      "coordinates": [
        -84.422,
        33.7628
      ]
    },
    "properties": {
      "name": "Atlanta",
      "country": "United States",
      "population": 5211164
    }
  },
  {
    "type": "Feature",
    "geometry": {
      "type": "Point",
      "coordinates": [
        -77.0163,
        38.9047
      ]
    },
    "properties": {
      "name": "Washington",
      "country": "United States",
      "population": 5146120
    }
  },
  {
    "type": "Feature",
    "geometry": {
      "type": "Point",
      "coordinates": [
        -71.0852,
        42.3188
      ]
    },
    "properties": {
      "name": "Boston",
      "country": "United States",
      "population": 4355184
    }
  },
  {
    "type": "Feature",
    "geometry": {
      "type": "Point",
      "coordinates": [
        -112.0892,
        33.5722
      ]
    },
    "properties": {
      "name": "Phoenix",
      "country": "United States",
      "population": 4065338
    }
  },
  {
    "type": "Feature",
    "geometry": {
      "type": "Point",
      "coordinates": [
        -83.1024,
        42.3834
      ]
    },
    "properties": {
      "name": "Detroit",
      "country": "United States",
      "population": 3716929
    }
  },
  {
    "type": "Feature",
    "geometry": {
      "type": "Point",
      "coordinates": [
        -122.3244,
        47.6211
      ]
    },
    "properties": {
      "name": "Seattle",
      "country": "United States",
      "population": 3555253
    }
  },
  {
    "type": "Feature",
    "geometry": {
      "type": "Point",
      "coordinates": [
        -122.4449,
        37.7558
      ]
    },
    "properties": {
      "name": "San Francisco",
      "country": "United States",
      "population": 3364862
    }
  },
  {
    "type": "Feature",
    "geometry": {
      "type": "Point",
      "coordinates": [
        -117.1222,
        32.8313
      ]
    },
    "properties": {
      "name": "San Diego",
      "country": "United States",
      "population": 3057778
    }
  },
  {
    "type": "Feature",
    "geometry": {
      "type": "Point",
      "coordinates": [
        -93.2678,
        44.9635
      ]
    },
    "properties": {
      "name": "Minneapolis",
      "country": "United States",
      "population": 2906807
    }
  },
  {
    "type": "Feature",
    "geometry": {
      "type": "Point",
      "coordinates": [
        -82.4447,
        27.9945
      ]
    },
    "properties": {
      "name": "Tampa",
      "country": "United States",
      "population": 2906035
    }
  },
  {
    "type": "Feature",
    "geometry": {
      "type": "Point",
      "coordinates": [
        -73.9496,
        40.6501
      ]
    },
    "properties": {
      "name": "Brooklyn",
      "country": "United States",
      "population": 2736074
    }
  },
  {
    "type": "Feature",
    "geometry": {
      "type": "Point",
      "coordinates": [
        -104.8758,
        39.762
      ]
    },
    "properties": {
      "name": "Denver",
      "country": "United States",
      "population": 2691349
    }
  },
  {
    "type": "Feature",
    "geometry": {
      "type": "Point",
      "coordinates": [
        -73.7976,
        40.7498
      ]
    },
    "properties": {
      "name": "Queens",
      "country": "United States",
      "population": 2405464
    }
  },
  {
    "type": "Feature",
    "geometry": {
      "type": "Point",
      "coordinates": [
        -117.3949,
        33.9381
      ]
    },
    "properties": {
      "name": "Riverside",
      "country": "United States",
      "population": 2288508
    }
  },
  {
    "type": "Feature",
    "geometry": {
      "type": "Point",
      "coordinates": [
        -115.2654,
        36.2333
      ]
    },
    "properties": {
      "name": "Las Vegas",
      "country": "United States",
      "population": 2256509
    }
  },
  {
    "type": "Feature",
    "geometry": {
      "type": "Point",
      "coordinates": [
        -76.6144,
        39.3051
      ]
    },
    "properties": {
      "name": "Baltimore",
      "country": "United States",
      "population": 2189589
    }
  },
  {
    "type": "Feature",
    "geometry": {
      "type": "Point",
      "coordinates": [
        -90.2451,
        38.6359
      ]
    },
    "properties": {
      "name": "St. Louis",
      "country": "United States",
      "population": 2127843
    }
  },
  {
    "type": "Feature",
    "geometry": {
      "type": "Point",
      "coordinates": [
        -122.65,
        45.5371
      ]
    },
    "properties": {
      "name": "Portland",
      "country": "United States",
      "population": 2084045
    }
  },
  {
    "type": "Feature",
    "geometry": {
      "type": "Point",
      "coordinates": [
        -98.5238,
        29.4632
      ]
    },
    "properties": {
      "name": "San Antonio",
      "country": "United States",
      "population": 2069843
    }
  },
  {
    "type": "Feature",
    "geometry": {
      "type": "Point",
      "coordinates": [
        -121.4685,
        38.5677
      ]
    },
    "properties": {
      "name": "Sacramento",
      "country": "United States",
      "population": 1962998
    }
  },
  {
    "type": "Feature",
    "geometry": {
      "type": "Point",
      "coordinates": [
        -97.7522,
        30.3005
      ]
    },
    "properties": {
      "name": "Austin",
      "country": "United States",
      "population": 1915031
    }
  },
  {
    "type": "Feature",
    "geometry": {
      "type": "Point",
      "coordinates": [
        -81.337,
        28.4773
      ]
    },
    "properties": {
      "name": "Orlando",
      "country": "United States",
      "population": 1913597
    }
  },
  {
    "type": "Feature",
    "geometry": {
      "type": "Point",
      "coordinates": [
        -121.848,
        37.3012
      ]
    },
    "properties": {
      "name": "San Jose",
      "country": "United States",
      "population": 1771563
    }
  },
  {
    "type": "Feature",
    "geometry": {
      "type": "Point",
      "coordinates": [
        -86.1458,
        39.7771
      ]
    },
    "properties": {
      "name": "Indianapolis",
      "country": "United States",
      "population": 1740984
    }
  },
  {
    "type": "Feature",
    "geometry": {
      "type": "Point",
      "coordinates": [
        -79.9763,
        40.4397
      ]
    },
    "properties": {
      "name": "Pittsburgh",
      "country": "United States",
      "population": 1712828
    }
  },
  {
    "type": "Feature",
    "geometry": {
      "type": "Point",
      "coordinates": [
        -84.506,
        39.1413
      ]
    },
    "properties": {
      "name": "Cincinnati",
      "country": "United States",
      "population": 1704916
    }
  },
  {
    "type": "Feature",
    "geometry": {
      "type": "Point",
      "coordinates": [
        -73.9662,
        40.7834
      ]
    },
    "properties": {
      "name": "Manhattan",
      "country": "United States",
      "population": 1694263
    }
  },
  {
    "type": "Feature",
    "geometry": {
      "type": "Point",
      "coordinates": [
        -94.5541,
        39.1238
      ]
    },
    "properties": {
      "name": "Kansas City",
      "country": "United States",
      "population": 1686807
    }
  },
  {
    "type": "Feature",
    "geometry": {
      "type": "Point",
      "coordinates": [
        -81.6805,
        41.4764
      ]
    },
    "properties": {
      "name": "Cleveland",
      "country": "United States",
      "population": 1679247
    }
  },
  {
    "type": "Feature",
    "geometry": {
      "type": "Point",
      "coordinates": [
        -82.9855,
        39.9862
      ]
    },
    "properties": {
      "name": "Columbus",
      "country": "United States",
      "population": 1578153
    }
  },
  {
    "type": "Feature",
    "geometry": {
      "type": "Point",
      "coordinates": [
        -73.8662,
        40.8501
      ]
    },
    "properties": {
      "name": "Bronx",
      "country": "United States",
      "population": 1472654
    }
  },
  {
    "type": "Feature",
    "geometry": {
      "type": "Point",
      "coordinates": [
        -80.8303,
        35.2083
      ]
    },
    "properties": {
      "name": "Charlotte",
      "country": "United States",
      "population": 1436613
    }
  },
  {
    "type": "Feature",
    "geometry": {
      "type": "Point",
      "coordinates": [
        -76.0435,
        36.7335
      ]
    },
    "properties": {
      "name": "Virginia Beach",
      "country": "United States",
      "population": 1431821
    }
  },
  {
    "type": "Feature",
    "geometry": {
      "type": "Point",
      "coordinates": [
        -81.6749,
        30.3322
      ]
    },
    "properties": {
      "name": "Jacksonville",
      "country": "United States",
      "population": 1303156
    }
  },
  {
    "type": "Feature",
    "geometry": {
      "type": "Point",
      "coordinates": [
        -87.9675,
        43.0642
      ]
    },
    "properties": {
      "name": "Milwaukee",
      "country": "United States",
      "population": 1290221
    }
  },
  {
    "type": "Feature",
    "geometry": {
      "type": "Point",
      "coordinates": [
        -71.4187,
        41.823
      ]
    },
    "properties": {
      "name": "Providence",
      "country": "United States",
      "population": 1270529
    }
  },
  {
    "type": "Feature",
    "geometry": {
      "type": "Point",
      "coordinates": [
        -86.7842,
        36.1715
      ]
    },
    "properties": {
      "name": "Nashville",
      "country": "United States",
      "population": 1178679
    }
  },
  {
    "type": "Feature",
    "geometry": {
      "type": "Point",
      "coordinates": [
        -111.9311,
        40.7776
      ]
    },
    "properties": {
      "name": "Salt Lake City",
      "country": "United States",
      "population": 1169033
    }
  },
  {
    "type": "Feature",
    "geometry": {
      "type": "Point",
      "coordinates": [
        -78.6429,
        35.8324
      ]
    },
    "properties": {
      "name": "Raleigh",
      "country": "United States",
      "population": 1150010
    }
  },
  {
    "type": "Feature",
    "geometry": {
      "type": "Point",
      "coordinates": [
        -77.4756,
        37.5295
      ]
    },
    "properties": {
      "name": "Richmond",
      "country": "United States",
      "population": 1081248
    }
  },
  {
    "type": "Feature",
    "geometry": {
      "type": "Point",
      "coordinates": [
        -89.9663,
        35.1087
      ]
    },
    "properties": {
      "name": "Memphis",
      "country": "United States",
      "population": 1033394
    }
  },
  {
    "type": "Feature",
    "geometry": {
      "type": "Point",
      "coordinates": [
        -97.5136,
        35.4676
      ]
    },
    "properties": {
      "name": "Oklahoma City",
      "country": "United States",
      "population": 1000207
    }
  },
  {
    "type": "Feature",
    "geometry": {
      "type": "Point",
      "coordinates": [
        -72.6834,
        41.7661
      ]
    },
    "properties": {
      "name": "Hartford",
      "country": "United States",
      "population": 969171
    }
  },
  {
    "type": "Feature",
    "geometry": {
      "type": "Point",
      "coordinates": [
        -85.6485,
        38.1663
      ]
    },
    "properties": {
      "name": "Louisville",
      "country": "United States",
      "population": 965005
    }
  },
  {
    "type": "Feature",
    "geometry": {
      "type": "Point",
      "coordinates": [
        -78.8487,
        42.9018
      ]
    },
    "properties": {
      "name": "Buffalo",
      "country": "United States",
      "population": 949547
    }
  },
  {
    "type": "Feature",
    "geometry": {
      "type": "Point",
      "coordinates": [
        -97.3474,
        32.7817
      ]
    },
    "properties": {
      "name": "Fort Worth",
      "country": "United States",
      "population": 941311
    }
  },
  {
    "type": "Feature",
    "geometry": {
      "type": "Point",
      "coordinates": [
        -73.1954,
        41.1918
      ]
    },
    "properties": {
      "name": "Bridgeport",
      "country": "United States",
      "population": 921660
    }
  },
  {
    "type": "Feature",
    "geometry": {
      "type": "Point",
      "coordinates": [
        -89.9288,
        30.0687
      ]
    },
    "properties": {
      "name": "New Orleans",
      "country": "United States",
      "population": 918752
    }
  },
  {
    "type": "Feature",
    "geometry": {
      "type": "Point",
      "coordinates": [
        -110.8787,
        32.1541
      ]
    },
    "properties": {
      "name": "Tucson",
      "country": "United States",
      "population": 879871
    }
  },
  {
    "type": "Feature",
    "geometry": {
      "type": "Point",
      "coordinates": [
        -106.43,
        31.8476
      ]
    },
    "properties": {
      "name": "El Paso",
      "country": "United States",
      "population": 862494
    }
  },
  {
    "type": "Feature",
    "geometry": {
      "type": "Point",
      "coordinates": [
        -96.0529,
        41.2627
      ]
    },
    "properties": {
      "name": "Omaha",
      "country": "United States",
      "population": 826161
    }
  },
  {
    "type": "Feature",
    "geometry": {
      "type": "Point",
      "coordinates": [
        -98.2467,
        26.2252
      ]
    },
    "properties": {
      "name": "McAllen",
      "country": "United States",
      "population": 810034
    }
  },
  {
    "type": "Feature",
    "geometry": {
      "type": "Point",
      "coordinates": [
        -73.6089,
        40.6629
      ]
    },
    "properties": {
      "name": "Hempstead",
      "country": "United States",
      "population": 789177
    }
  },
  {
    "type": "Feature",
    "geometry": {
      "type": "Point",
      "coordinates": [
        -86.7971,
        33.5279
      ]
    },
    "properties": {
      "name": "Birmingham",
      "country": "United States",
      "population": 778756
    }
  },
  {
    "type": "Feature",
    "geometry": {
      "type": "Point",
      "coordinates": [
        -106.6465,
        35.1054
      ]
    },
    "properties": {
      "name": "Albuquerque",
      "country": "United States",
      "population": 767499
    }
  },
  {
    "type": "Feature",
    "geometry": {
      "type": "Point",
      "coordinates": [
        -95.9042,
        36.1283
      ]
    },
    "properties": {
      "name": "Tulsa",
      "country": "United States",
      "population": 740620
    }
  },
  {
    "type": "Feature",
    "geometry": {
      "type": "Point",
      "coordinates": [
        -79.9687,
        32.8168
      ]
    },
    "properties": {
      "name": "Charleston",
      "country": "United States",
      "population": 726389
    }
  },
  {
    "type": "Feature",
    "geometry": {
      "type": "Point",
      "coordinates": [
        -119.7939,
        36.783
      ]
    },
    "properties": {
      "name": "Fresno",
      "country": "United States",
      "population": 724547
    }
  },
  {
    "type": "Feature",
    "geometry": {
      "type": "Point",
      "coordinates": [
        -77.6162,
        43.168
      ]
    },
    "properties": {
      "name": "Rochester",
      "country": "United States",
      "population": 694707
    }
  },
  {
    "type": "Feature",
    "geometry": {
      "type": "Point",
      "coordinates": [
        -84.2003,
        39.7805
      ]
    },
    "properties": {
      "name": "Dayton",
      "country": "United States",
      "population": 667936
    }
  },
  {
    "type": "Feature",
    "geometry": {
      "type": "Point",
      "coordinates": [
        -81.9957,
        26.6443
      ]
    },
    "properties": {
      "name": "Cape Coral",
      "country": "United States",
      "population": 656464
    }
  },
  {
    "type": "Feature",
    "geometry": {
      "type": "Point",
      "coordinates": [
        -111.6457,
        40.2457
      ]
    },
    "properties": {
      "name": "Provo",
      "country": "United States",
      "population": 639820
    }
  },
  {
    "type": "Feature",
    "geometry": {
      "type": "Point",
      "coordinates": [
        -104.7605,
        38.8674
      ]
    },
    "properties": {
      "name": "Colorado Springs",
      "country": "United States",
      "population": 638421
    }
  },
  {
    "type": "Feature",
    "geometry": {
      "type": "Point",
      "coordinates": [
        -117.6551,
        33.6096
      ]
    },
    "properties": {
      "name": "Mission Viejo",
      "country": "United States",
      "population": 634674
    }
  },
  {
    "type": "Feature",
    "geometry": {
      "type": "Point",
      "coordinates": [
        -75.4756,
        40.5961
      ]
    },
    "properties": {
      "name": "Allentown",
      "country": "United States",
      "population": 632175
    }
  },
  {
    "type": "Feature",
    "geometry": {
      "type": "Point",
      "coordinates": [
        -91.1311,
        30.442
      ]
    },
    "properties": {
      "name": "Baton Rouge",
      "country": "United States",
      "population": 630063
    }
  },
  {
    "type": "Feature",
    "geometry": {
      "type": "Point",
      "coordinates": [
        -111.9682,
        41.2279
      ]
    },
    "properties": {
      "name": "Ogden",
      "country": "United States",
      "population": 623688
    }
  },
  {
    "type": "Feature",
    "geometry": {
      "type": "Point",
      "coordinates": [
        -83.9496,
        35.9692
      ]
    },
    "properties": {
      "name": "Knoxville",
      "country": "United States",
      "population": 618226
    }
  },
  {
    "type": "Feature",
    "geometry": {
      "type": "Point",
      "coordinates": [
        -85.6562,
        42.9619
      ]
    },
    "properties": {
      "name": "Grand Rapids",
      "country": "United States",
      "population": 611480
    }
  },
  {
    "type": "Feature",
    "geometry": {
      "type": "Point",
      "coordinates": [
        -80.9036,
        34.0378
      ]
    },
    "properties": {
      "name": "Columbia",
      "country": "United States",
      "population": 605083
    }
  },
  {
    "type": "Feature",
    "geometry": {
      "type": "Point",
      "coordinates": [
        -73.7987,
        42.6664
      ]
    },
    "properties": {
      "name": "Albany",
      "country": "United States",
      "population": 602242
    }
  },
  {
    "type": "Feature",
    "geometry": {
      "type": "Point",
      "coordinates": [
        -119.0359,
        35.3529
      ]
    },
    "properties": {
      "name": "Bakersfield",
      "country": "United States",
      "population": 578542
    }
  },
  {
    "type": "Feature",
    "geometry": {
      "type": "Point",
      "coordinates": [
        -72.9246,
        41.3113
      ]
    },
    "properties": {
      "name": "New Haven",
      "country": "United States",
      "population": 565056
    }
  },
  {
    "type": "Feature",
    "geometry": {
      "type": "Point",
      "coordinates": [
        -93.6105,
        41.5725
      ]
    },
    "properties": {
      "name": "Des Moines",
      "country": "United States",
      "population": 560170
    }
  },
  {
    "type": "Feature",
    "geometry": {
      "type": "Point",
      "coordinates": [
        -80.6593,
        27.9631
      ]
    },
    "properties": {
      "name": "Palm Bay",
      "country": "United States",
      "population": 547659
    }
  },
  {
    "type": "Feature",
    "geometry": {
      "type": "Point",
      "coordinates": [
        -81.5219,
        41.0798
      ]
    },
    "properties": {
      "name": "Akron",
      "country": "United States",
      "population": 538659
    }
  },
  {
    "type": "Feature",
    "geometry": {
      "type": "Point",
      "coordinates": [
        -122.0016,
        37.9722
      ]
    },
    "properties": {
      "name": "Concord",
      "country": "United States",
      "population": 525233
    }
  },
  {
    "type": "Feature",
    "geometry": {
      "type": "Point",
      "coordinates": [
        -111.7178,
        33.4015
      ]
    },
    "properties": {
      "name": "Mesa",
      "country": "United States",
      "population": 507478
    }
  },
  {
    "type": "Feature",
    "geometry": {
      "type": "Point",
      "coordinates": [
        -97.3443,
        37.6895
      ]
    },
    "properties": {
      "name": "Wichita",
      "country": "United States",
      "population": 501760
    }
  },
  {
    "type": "Feature",
    "geometry": {
      "type": "Point",
      "coordinates": [
        -76.8843,
        40.2752
      ]
    },
    "properties": {
      "name": "Harrisburg",
      "country": "United States",
      "population": 499494
    }
  },
  {
    "type": "Feature",
    "geometry": {
      "type": "Point",
      "coordinates": [
        -74.1496,
        40.5834
      ]
    },
    "properties": {
      "name": "Staten Island",
      "country": "United States",
      "population": 495747
    }
  },
  {
    "type": "Feature",
    "geometry": {
      "type": "Point",
      "coordinates": [
        -83.5827,
        41.6638
      ]
    },
    "properties": {
      "name": "Toledo",
      "country": "United States",
      "population": 492076
    }
  },
  {
    "type": "Feature",
    "geometry": {
      "type": "Point",
      "coordinates": [
        -72.9517,
        40.832
      ]
    },
    "properties": {
      "name": "Brookhaven",
      "country": "United States",
      "population": 487817
    }
  },
  {
    "type": "Feature",
    "geometry": {
      "type": "Point",
      "coordinates": [
        -71.8079,
        42.2705
      ]
    },
    "properties": {
      "name": "Worcester",
      "country": "United States",
      "population": 487014
    }
  },
  {
    "type": "Feature",
    "geometry": {
      "type": "Point",
      "coordinates": [
        -80.3884,
        27.2796
      ]
    },
    "properties": {
      "name": "Port St. Lucie",
      "country": "United States",
      "population": 473733
    }
  },
  {
    "type": "Feature",
    "geometry": {
      "type": "Point",
      "coordinates": [
        -92.3577,
        34.7256
      ]
    },
    "properties": {
      "name": "Little Rock",
      "country": "United States",
      "population": 467846
    }
  },
  {
    "type": "Feature",
    "geometry": {
      "type": "Point",
      "coordinates": [
        -89.393,
        43.0822
      ]
    },
    "properties": {
      "name": "Madison",
      "country": "United States",
      "population": 460255
    }
  },
  {
    "type": "Feature",
    "geometry": {
      "type": "Point",
      "coordinates": [
        -117.433,
        47.6671
      ]
    },
    "properties": {
      "name": "Spokane",
      "country": "United States",
      "population": 458988
    }
  },
  {
    "type": "Feature",
    "geometry": {
      "type": "Point",
      "coordinates": [
        -118.167,
        33.7977
      ]
    },
    "properties": {
      "name": "Long Beach",
      "country": "United States",
      "population": 458491
    }
  },
  {
    "type": "Feature",
    "geometry": {
      "type": "Point",
      "coordinates": [
        -97.1418,
        33.2175
      ]
    },
    "properties": {
      "name": "Denton",
      "country": "United States",
      "population": 455152
    }
  },
  {
    "type": "Feature",
    "geometry": {
      "type": "Point",
      "coordinates": [
        -119.8483,
        39.5497
      ]
    },
    "properties": {
      "name": "Reno",
      "country": "United States",
      "population": 454814
    }
  },
  {
    "type": "Feature",
    "geometry": {
      "type": "Point",
      "coordinates": [
        -116.2308,
        43.6005
      ]
    },
    "properties": {
      "name": "Boise",
      "country": "United States",
      "population": 449428
    }
  },
  {
    "type": "Feature",
    "geometry": {
      "type": "Point",
      "coordinates": [
        -81.7859,
        26.3558
      ]
    },
    "properties": {
      "name": "Bonita Springs",
      "country": "United States",
      "population": 445500
    }
  },
  {
    "type": "Feature",
    "geometry": {
      "type": "Point",
      "coordinates": [
        -81.4169,
        28.3041
      ]
    },
    "properties": {
      "name": "Kissimmee",
      "country": "United States",
      "population": 442790
    }
  },
  {
    "type": "Feature",
    "geometry": {
      "type": "Point",
      "coordinates": [
        -82.0708,
        33.3645
      ]
    },
    "properties": {
      "name": "Augusta",
      "country": "United States",
      "population": 439361
    }
  },
  {
    "type": "Feature",
    "geometry": {
      "type": "Point",
      "coordinates": [
        -72.5395,
        42.1155
      ]
    },
    "properties": {
      "name": "Springfield",
      "country": "United States",
      "population": 438889
    }
  },
  {
    "type": "Feature",
    "geometry": {
      "type": "Point",
      "coordinates": [
        -122.2166,
        37.7904
      ]
    },
    "properties": {
      "name": "Oakland",
      "country": "United States",
      "population": 438072
    }
  },
  {
    "type": "Feature",
    "geometry": {
      "type": "Point",
      "coordinates": [
        -80.261,
        36.1029
      ]
    },
    "properties": {
      "name": "Winston-Salem",
      "country": "United States",
      "population": 434231
    }
  },
  {
    "type": "Feature",
    "geometry": {
      "type": "Point",
      "coordinates": [
        -121.3109,
        37.9765
      ]
    },
    "properties": {
      "name": "Stockton",
      "country": "United States",
      "population": 416005
    }
  },
  {
    "type": "Feature",
    "geometry": {
      "type": "Point",
      "coordinates": [
        -78.9022,
        35.9792
      ]
    },
    "properties": {
      "name": "Durham",
      "country": "United States",
      "population": 411362
    }
  },
  {
    "type": "Feature",
    "geometry": {
      "type": "Point",
      "coordinates": [
        -85.2481,
        35.066
      ]
    },
    "properties": {
      "name": "Chattanooga",
      "country": "United States",
      "population": 410795
    }
  },
  {
    "type": "Feature",
    "geometry": {
      "type": "Point",
      "coordinates": [
        -82.3646,
        34.8354
      ]
    },
    "properties": {
      "name": "Greenville",
      "country": "United States",
      "population": 408626
    }
  },
  {
    "type": "Feature",
    "geometry": {
      "type": "Point",
      "coordinates": [
        -76.3012,
        40.042
      ]
    },
    "properties": {
      "name": "Lancaster",
      "country": "United States",
      "population": 408023
    }
  },
  {
    "type": "Feature",
    "geometry": {
      "type": "Point",
      "coordinates": [
        -76.1437,
        43.0407
      ]
    },
    "properties": {
      "name": "Syracuse",
      "country": "United States",
      "population": 407625
    }
  },
  {
    "type": "Feature",
    "geometry": {
      "type": "Point",
      "coordinates": [
        -94.1661,
        36.0714
      ]
    },
    "properties": {
      "name": "Fayetteville",
      "country": "United States",
      "population": 405556
    }
  },
  {
    "type": "Feature",
    "geometry": {
      "type": "Point",
      "coordinates": [
        -87.1911,
        30.4413
      ]
    },
    "properties": {
      "name": "Pensacola",
      "country": "United States",
      "population": 401535
    }
  },
  {
    "type": "Feature",
    "geometry": {
      "type": "Point",
      "coordinates": [
        -97.125,
        32.6998
      ]
    },
    "properties": {
      "name": "Arlington",
      "country": "United States",
      "population": 394769
    }
  },
  {
    "type": "Feature",
    "geometry": {
      "type": "Point",
      "coordinates": [
        -104.7237,
        39.7083
      ]
    },
    "properties": {
      "name": "Aurora",
      "country": "United States",
      "population": 390201
    }
  },
  {
    "type": "Feature",
    "geometry": {
      "type": "Point",
      "coordinates": [
        -75.6649,
        41.4044
      ]
    },
    "properties": {
      "name": "Scranton",
      "country": "United States",
      "population": 375462
    }
  },
  {
    "type": "Feature",
    "geometry": {
      "type": "Point",
      "coordinates": [
        -119.1815,
        34.1964
      ]
    },
    "properties": {
      "name": "Oxnard",
      "country": "United States",
      "population": 373423
    }
  },
  {
    "type": "Feature",
    "geometry": {
      "type": "Point",
      "coordinates": [
        -116.2346,
        33.7346
      ]
    },
    "properties": {
      "name": "Indio",
      "country": "United States",
      "population": 371926
    }
  },
  {
    "type": "Feature",
    "geometry": {
      "type": "Point",
      "coordinates": [
        -117.3536,
        34.5277
      ]
    },
    "properties": {
      "name": "Victorville",
      "country": "United States",
      "population": 363596
    }
  },
  {
    "type": "Feature",
    "geometry": {
      "type": "Point",
      "coordinates": [
        -74.7641,
        40.2237
      ]
    },
    "properties": {
      "name": "Trenton",
      "country": "United States",
      "population": 362501
    }
  },
  {
    "type": "Feature",
    "geometry": {
      "type": "Point",
      "coordinates": [
        -86.6412,
        34.6981
      ]
    },
    "properties": {
      "name": "Huntsville",
      "country": "United States",
      "population": 359389
    }
  },
  {
    "type": "Feature",
    "geometry": {
      "type": "Point",
      "coordinates": [
        -121.0028,
        37.6375
      ]
    },
    "properties": {
      "name": "Modesto",
      "country": "United States",
      "population": 355686
    }
  },
  {
    "type": "Feature",
    "geometry": {
      "type": "Point",
      "coordinates": [
        -157.846,
        21.3294
      ]
    },
    "properties": {
      "name": "Honolulu",
      "country": "United States",
      "population": 346323
    }
  },
  {
    "type": "Feature",
    "geometry": {
      "type": "Point",
      "coordinates": [
        -79.8271,
        36.0956
      ]
    },
    "properties": {
      "name": "Greensboro",
      "country": "United States",
      "population": 345858
    }
  },
  {
    "type": "Feature",
    "geometry": {
      "type": "Point",
      "coordinates": [
        -85.1436,
        41.0888
      ]
    },
    "properties": {
      "name": "Fort Wayne",
      "country": "United States",
      "population": 345279
    }
  },
  {
    "type": "Feature",
    "geometry": {
      "type": "Point",
      "coordinates": [
        -117.8574,
        33.839
      ]
    },
    "properties": {
      "name": "Anaheim",
      "country": "United States",
      "population": 344553
    }
  },
  {
    "type": "Feature",
    "geometry": {
      "type": "Point",
      "coordinates": [
        -97.3767,
        27.7254
      ]
    },
    "properties": {
      "name": "Corpus Christi",
      "country": "United States",
      "population": 339432
    }
  },
  {
    "type": "Feature",
    "geometry": {
      "type": "Point",
      "coordinates": [
        -105.0656,
        40.5477
      ]
    },
    "properties": {
      "name": "Fort Collins",
      "country": "United States",
      "population": 339256
    }
  },
  {
    "type": "Feature",
    "geometry": {
      "type": "Point",
      "coordinates": [
        -73.1888,
        40.7385
      ]
    },
    "properties": {
      "name": "Islip",
      "country": "United States",
      "population": 338784
    }
  },
  {
    "type": "Feature",
    "geometry": {
      "type": "Point",
      "coordinates": [
        -121.796,
        37.9787
      ]
    },
    "properties": {
      "name": "Antioch",
      "country": "United States",
      "population": 333347
    }
  },
  {
    "type": "Feature",
    "geometry": {
      "type": "Point",
      "coordinates": [
        -90.2125,
        32.3157
      ]
    },
    "properties": {
      "name": "Jackson",
      "country": "United States",
      "population": 331332
    }
  },
  {
    "type": "Feature",
    "geometry": {
      "type": "Point",
      "coordinates": [
        -78.9772,
        35.085
      ]
    },
    "properties": {
      "name": "Fayetteville",
      "country": "United States",
      "population": 326821
    }
  },
  {
    "type": "Feature",
    "geometry": {
      "type": "Point",
      "coordinates": [
        -78.8844,
        33.7094
      ]
    },
    "properties": {
      "name": "Myrtle Beach",
      "country": "United States",
      "population": 325829
    }
  },
  {
    "type": "Feature",
    "geometry": {
      "type": "Point",
      "coordinates": [
        -115.0381,
        36.0133
      ]
    },
    "properties": {
      "name": "Henderson",
      "country": "United States",
      "population": 324523
    }
  },
  {
    "type": "Feature",
    "geometry": {
      "type": "Point",
      "coordinates": [
        -88.1162,
        30.6782
      ]
    },
    "properties": {
      "name": "Mobile",
      "country": "United States",
      "population": 324067
    }
  },
  {
    "type": "Feature",
    "geometry": {
      "type": "Point",
      "coordinates": [
        -84.4587,
        38.0423
      ]
    },
    "properties": {
      "name": "Lexington",
      "country": "United States",
      "population": 321122
    }
  },
  {
    "type": "Feature",
    "geometry": {
      "type": "Point",
      "coordinates": [
        -84.5601,
        42.7142
      ]
    },
    "properties": {
      "name": "Lansing",
      "country": "United States",
      "population": 318001
    }
  },
  {
    "type": "Feature",
    "geometry": {
      "type": "Point",
      "coordinates": [
        -81.1821,
        32.0286
      ]
    },
    "properties": {
      "name": "Savannah",
      "country": "United States",
      "population": 316446
    }
  },
  {
    "type": "Feature",
    "geometry": {
      "type": "Point",
      "coordinates": [
        -80.6463,
        41.0993
      ]
    },
    "properties": {
      "name": "Youngstown",
      "country": "United States",
      "population": 315751
    }
  },
  {
    "type": "Feature",
    "geometry": {
      "type": "Point",
      "coordinates": [
        -83.731,
        42.2759
      ]
    },
    "properties": {
      "name": "Ann Arbor",
      "country": "United States",
      "population": 314647
    }
  },
  {
    "type": "Feature",
    "geometry": {
      "type": "Point",
      "coordinates": [
        -117.8819,
        33.7367
      ]
    },
    "properties": {
      "name": "Santa Ana",
      "country": "United States",
      "population": 311639
    }
  },
  {
    "type": "Feature",
    "geometry": {
      "type": "Point",
      "coordinates": [
        -117.7738,
        33.6772
      ]
    },
    "properties": {
      "name": "Irvine",
      "country": "United States",
      "population": 308160
    }
  },
  {
    "type": "Feature",
    "geometry": {
      "type": "Point",
      "coordinates": [
        -93.1039,
        44.9478
      ]
    },
    "properties": {
      "name": "St. Paul",
      "country": "United States",
      "population": 307762
    }
  },
  {
    "type": "Feature",
    "geometry": {
      "type": "Point",
      "coordinates": [
        -73.9211,
        41.695
      ]
    },
    "properties": {
      "name": "Poughkeepsie",
      "country": "United States",
      "population": 307738
    }
  },
  {
    "type": "Feature",
    "geometry": {
      "type": "Point",
      "coordinates": [
        -74.1725,
        40.7245
      ]
    },
    "properties": {
      "name": "Newark",
      "country": "United States",
      "population": 307188
    }
  },
  {
    "type": "Feature",
    "geometry": {
      "type": "Point",
      "coordinates": [
        -122.7067,
        38.4458
      ]
    },
    "properties": {
      "name": "Santa Rosa",
      "country": "United States",
      "population": 299986
    }
  },
  {
    "type": "Feature",
    "geometry": {
      "type": "Point",
      "coordinates": [
        -73.514,
        40.7846
      ]
    },
    "properties": {
      "name": "Oyster Bay",
      "country": "United States",
      "population": 299519
    }
  },
  {
    "type": "Feature",
    "geometry": {
      "type": "Point",
      "coordinates": [
        -80.6369,
        35.3933
      ]
    },
    "properties": {
      "name": "Concord",
      "country": "United States",
      "population": 297379
    }
  },
  {
    "type": "Feature",
    "geometry": {
      "type": "Point",
      "coordinates": [
        -81.7014,
        28.0118
      ]
    },
    "properties": {
      "name": "Winter Haven",
      "country": "United States",
      "population": 296830
    }
  },
  {
    "type": "Feature",
    "geometry": {
      "type": "Point",
      "coordinates": [
        -82.5537,
        35.5707
      ]
    },
    "properties": {
      "name": "Asheville",
      "country": "United States",
      "population": 295040
    }
  },
  {
    "type": "Feature",
    "geometry": {
      "type": "Point",
      "coordinates": [
        -81.3676,
        40.8078
      ]
    },
    "properties": {
      "name": "Canton",
      "country": "United States",
      "population": 293657
    }
  },
  {
    "type": "Feature",
    "geometry": {
      "type": "Point",
      "coordinates": [
        -96.6784,
        40.8099
      ]
    },
    "properties": {
      "name": "Lincoln",
      "country": "United States",
      "population": 293055
    }
  },
  {
    "type": "Feature",
    "geometry": {
      "type": "Point",
      "coordinates": [
        -83.6921,
        43.0236
      ]
    },
    "properties": {
      "name": "Flint",
      "country": "United States",
      "population": 291688
    }
  },
  {
    "type": "Feature",
    "geometry": {
      "type": "Point",
      "coordinates": [
        -81.9545,
        28.0557
      ]
    },
    "properties": {
      "name": "Lakeland",
      "country": "United States",
      "population": 290762
    }
  },
  {
    "type": "Feature",
    "geometry": {
      "type": "Point",
      "coordinates": [
        -74.0686,
        40.7184
      ]
    },
    "properties": {
      "name": "Jersey City",
      "country": "United States",
      "population": 289691
    }
  },
  {
    "type": "Feature",
    "geometry": {
      "type": "Point",
      "coordinates": [
        -149.1091,
        61.1508
      ]
    },
    "properties": {
      "name": "Anchorage",
      "country": "United States",
      "population": 289069
    }
  },
  {
    "type": "Feature",
    "geometry": {
      "type": "Point",
      "coordinates": [
        -93.2916,
        37.1943
      ]
    },
    "properties": {
      "name": "Springfield",
      "country": "United States",
      "population": 289041
    }
  },
  {
    "type": "Feature",
    "geometry": {
      "type": "Point",
      "coordinates": [
        -96.7486,
        33.0502
      ]
    },
    "properties": {
      "name": "Plano",
      "country": "United States",
      "population": 287339
    }
  },
  {
    "type": "Feature",
    "geometry": {
      "type": "Point",
      "coordinates": [
        -101.8879,
        33.5657
      ]
    },
    "properties": {
      "name": "Lubbock",
      "country": "United States",
      "population": 283024
    }
  },
  {
    "type": "Feature",
    "geometry": {
      "type": "Point",
      "coordinates": [
        -90.6053,
        41.5565
      ]
    },
    "properties": {
      "name": "Davenport",
      "country": "United States",
      "population": 282356
    }
  },
  {
    "type": "Feature",
    "geometry": {
      "type": "Point",
      "coordinates": [
        -75.9267,
        40.34
      ]
    },
    "properties": {
      "name": "Reading",
      "country": "United States",
      "population": 280030
    }
  },
  {
    "type": "Feature",
    "geometry": {
      "type": "Point",
      "coordinates": [
        -93.7955,
        32.4653
      ]
    },
    "properties": {
      "name": "Shreveport",
      "country": "United States",
      "population": 278269
    }
  },
  {
    "type": "Feature",
    "geometry": {
      "type": "Point",
      "coordinates": [
        -111.8514,
        33.2825
      ]
    },
    "properties": {
      "name": "Chandler",
      "country": "United States",
      "population": 278123
    }
  },
  {
    "type": "Feature",
    "geometry": {
      "type": "Point",
      "coordinates": [
        -86.2696,
        41.6767
      ]
    },
    "properties": {
      "name": "South Bend",
      "country": "United States",
      "population": 275725
    }
  },
  {
    "type": "Feature",
    "geometry": {
      "type": "Point",
      "coordinates": [
        -77.8866,
        34.2099
      ]
    },
    "properties": {
      "name": "Wilmington",
      "country": "United States",
      "population": 275128
    }
  },
  {
    "type": "Feature",
    "geometry": {
      "type": "Point",
      "coordinates": [
        -117.0144,
        32.6281
      ]
    },
    "properties": {
      "name": "Chula Vista",
      "country": "United States",
      "population": 275030
    }
  },
  {
    "type": "Feature",
    "geometry": {
      "type": "Point",
      "coordinates": [
        -89.064,
        42.2596
      ]
    },
    "properties": {
      "name": "Rockford",
      "country": "United States",
      "population": 274256
    }
  },
  {
    "type": "Feature",
    "geometry": {
      "type": "Point",
      "coordinates": [
        -123.1174,
        44.0564
      ]
    },
    "properties": {
      "name": "Eugene",
      "country": "United States",
      "population": 272737
    }
  },
  {
    "type": "Feature",
    "geometry": {
      "type": "Point",
      "coordinates": [
        -123.0244,
        44.9233
      ]
    },
    "properties": {
      "name": "Salem",
      "country": "United States",
      "population": 272331
    }
  },
  {
    "type": "Feature",
    "geometry": {
      "type": "Point",
      "coordinates": [
        -111.7463,
        33.31
      ]
    },
    "properties": {
      "name": "Gilbert",
      "country": "United States",
      "population": 271118
    }
  },
  {
    "type": "Feature",
    "geometry": {
      "type": "Point",
      "coordinates": [
        -115.0888,
        36.2883
      ]
    },
    "properties": {
      "name": "North Las Vegas",
      "country": "United States",
      "population": 270773
    }
  },
  {
    "type": "Feature",
    "geometry": {
      "type": "Point",
      "coordinates": [
        -118.4964,
        34.4175
      ]
    },
    "properties": {
      "name": "Santa Clarita",
      "country": "United States",
      "population": 265529
    }
  },
  {
    "type": "Feature",
    "geometry": {
      "type": "Point",
      "coordinates": [
        -89.6154,
        40.752
      ]
    },
    "properties": {
      "name": "Peoria",
      "country": "United States",
      "population": 262461
    }
  },
  {
    "type": "Feature",
    "geometry": {
      "type": "Point",
      "coordinates": [
        -84.2527,
        30.4551
      ]
    },
    "properties": {
      "name": "Tallahassee",
      "country": "United States",
      "population": 261271
    }
  },
  {
    "type": "Feature",
    "geometry": {
      "type": "Point",
      "coordinates": [
        -97.7297,
        31.0753
      ]
    },
    "properties": {
      "name": "Killeen",
      "country": "United States",
      "population": 261099
    }
  },
  {
    "type": "Feature",
    "geometry": {
      "type": "Point",
      "coordinates": [
        -82.6652,
        27.7931
      ]
    },
    "properties": {
      "name": "St. Petersburg",
      "country": "United States",
      "population": 260646
    }
  },
  {
    "type": "Feature",
    "geometry": {
      "type": "Point",
      "coordinates": [
        -119.1732,
        46.1978
      ]
    },
    "properties": {
      "name": "Kennewick",
      "country": "United States",
      "population": 260091
    }
  },
  {
    "type": "Feature",
    "geometry": {
      "type": "Point",
      "coordinates": [
        -84.8771,
        32.51
      ]
    },
    "properties": {
      "name": "Columbus",
      "country": "United States",
      "population": 257578
    }
  },
  {
    "type": "Feature",
    "geometry": {
      "type": "Point",
      "coordinates": [
        -99.4874,
        27.5625
      ]
    },
    "properties": {
      "name": "Laredo",
      "country": "United States",
      "population": 255949
    }
  },
  {
    "type": "Feature",
    "geometry": {
      "type": "Point",
      "coordinates": [
        -96.9702,
        32.8583
      ]
    },
    "properties": {
      "name": "Irving",
      "country": "United States",
      "population": 255036
    }
  },
  {
    "type": "Feature",
    "geometry": {
      "type": "Point",
      "coordinates": [
        -88.0811,
        42.3791
      ]
    },
    "properties": {
      "name": "Round Lake Beach",
      "country": "United States",
      "population": 252224
    }
  },
  {
    "type": "Feature",
    "geometry": {
      "type": "Point",
      "coordinates": [
        -86.2668,
        32.3482
      ]
    },
    "properties": {
      "name": "Montgomery",
      "country": "United States",
      "population": 251545
    }
  },
  {
    "type": "Feature",
    "geometry": {
      "type": "Point",
      "coordinates": [
        -76.3023,
        36.6778
      ]
    },
    "properties": {
      "name": "Chesapeake",
      "country": "United States",
      "population": 251153
    }
  },
  {
    "type": "Feature",
    "geometry": {
      "type": "Point",
      "coordinates": [
        -112.2311,
        33.5791
      ]
    },
    "properties": {
      "name": "Glendale",
      "country": "United States",
      "population": 250193
    }
  },
  {
    "type": "Feature",
    "geometry": {
      "type": "Point",
      "coordinates": [
        -71.491,
        42.7491
      ]
    },
    "properties": {
      "name": "Nashua",
      "country": "United States",
      "population": 247828
    }
  },
  {
    "type": "Feature",
    "geometry": {
      "type": "Point",
      "coordinates": [
        -76.7315,
        39.9651
      ]
    },
    "properties": {
      "name": "York",
      "country": "United States",
      "population": 246769
    }
  },
  {
    "type": "Feature",
    "geometry": {
      "type": "Point",
      "coordinates": [
        -96.6304,
        32.91
      ]
    },
    "properties": {
      "name": "Garland",
      "country": "United States",
      "population": 245298
    }
  },
  {
    "type": "Feature",
    "geometry": {
      "type": "Point",
      "coordinates": [
        -81.0241,
        34.9415
      ]
    },
    "properties": {
      "name": "Rock Hill",
      "country": "United States",
      "population": 244403
    }
  },
  {
    "type": "Feature",
    "geometry": {
      "type": "Point",
      "coordinates": [
        -111.8651,
        33.6872
      ]
    },
    "properties": {
      "name": "Scottsdale",
      "country": "United States",
      "population": 242169
    }
  },
  {
    "type": "Feature",
    "geometry": {
      "type": "Point",
      "coordinates": [
        -73.6688,
        40.7912
      ]
    },
    "properties": {
      "name": "North Hempstead",
      "country": "United States",
      "population": 236600
    }
  },
  {
    "type": "Feature",
    "geometry": {
      "type": "Point",
      "coordinates": [
        -77.1011,
        38.8786
      ]
    },
    "properties": {
      "name": "Arlington",
      "country": "United States",
      "population": 235463
    }
  },
  {
    "type": "Feature",
    "geometry": {
      "type": "Point",
      "coordinates": [
        -76.259,
        36.8945
      ]
    },
    "properties": {
      "name": "Norfolk",
      "country": "United States",
      "population": 235037
    }
  },
  {
    "type": "Feature",
    "geometry": {
      "type": "Point",
      "coordinates": [
        -88.3892,
        44.278
      ]
    },
    "properties": {
      "name": "Appleton",
      "country": "United States",
      "population": 234701
    }
  },
  {
    "type": "Feature",
    "geometry": {
      "type": "Point",
      "coordinates": [
        -115.2278,
        36.0091
      ]
    },
    "properties": {
      "name": "Enterprise",
      "country": "United States",
      "population": 232043
    }
  },
  {
    "type": "Feature",
    "geometry": {
      "type": "Point",
      "coordinates": [
        -89.0704,
        30.4274
      ]
    },
    "properties": {
      "name": "Gulfport",
      "country": "United States",
      "population": 231754
    }
  },
  {
    "type": "Feature",
    "geometry": {
      "type": "Point",
      "coordinates": [
        -92.0325,
        30.2082
      ]
    },
    "properties": {
      "name": "Lafayette",
      "country": "United States",
      "population": 231548
    }
  },
  {
    "type": "Feature",
    "geometry": {
      "type": "Point",
      "coordinates": [
        -122.7121,
        47.5436
      ]
    },
    "properties": {
      "name": "Bremerton",
      "country": "United States",
      "population": 228576
    }
  },
  {
    "type": "Feature",
    "geometry": {
      "type": "Point",
      "coordinates": [
        -121.9843,
        37.5265
      ]
    },
    "properties": {
      "name": "Fremont",
      "country": "United States",
      "population": 228518
    }
  },
  {
    "type": "Feature",
    "geometry": {
      "type": "Point",
      "coordinates": [
        -87.9895,
        44.5148
      ]
    },
    "properties": {
      "name": "Green Bay",
      "country": "United States",
      "population": 227679
    }
  },
  {
    "type": "Feature",
    "geometry": {
      "type": "Point",
      "coordinates": [
        -96.8292,
        46.8651
      ]
    },
    "properties": {
      "name": "Fargo",
      "country": "United States",
      "population": 225066
    }
  },
  {
    "type": "Feature",
    "geometry": {
      "type": "Point",
      "coordinates": [
        -81.2137,
        28.905
      ]
    },
    "properties": {
      "name": "Deltona",
      "country": "United States",
      "population": 224303
    }
  },
  {
    "type": "Feature",
    "geometry": {
      "type": "Point",
      "coordinates": [
        -97.458,
        25.9975
      ]
    },
    "properties": {
      "name": "Brownsville",
      "country": "United States",
      "population": 223416
    }
  },
  {
    "type": "Feature",
    "geometry": {
      "type": "Point",
      "coordinates": [
        -80.3045,
        25.8696
      ]
    },
    "properties": {
      "name": "Hialeah",
      "country": "United States",
      "population": 221901
    }
  },
  {
    "type": "Feature",
    "geometry": {
      "type": "Point",
      "coordinates": [
        -117.2943,
        34.1416
      ]
    },
    "properties": {
      "name": "San Bernardino",
      "country": "United States",
      "population": 221774
    }
  },
  {
    "type": "Feature",
    "geometry": {
      "type": "Point",
      "coordinates": [
        -122.4531,
        47.2431
      ]
    },
    "properties": {
      "name": "Tacoma",
      "country": "United States",
      "population": 220482
    }
  },
  {
    "type": "Feature",
    "geometry": {
      "type": "Point",
      "coordinates": [
        -82.3459,
        29.6804
      ]
    },
    "properties": {
      "name": "Gainesville",
      "country": "United States",
      "population": 219946
    }
  },
  {
    "type": "Feature",
    "geometry": {
      "type": "Point",
      "coordinates": [
        -115.2636,
        36.0952
      ]
    },
    "properties": {
      "name": "Spring Valley",
      "country": "United States",
      "population": 219913
    }
  },
  {
    "type": "Feature",
    "geometry": {
      "type": "Point",
      "coordinates": [
        -87.3413,
        36.5692
      ]
    },
    "properties": {
      "name": "Clarksville",
      "country": "United States",
      "population": 218159
    }
  },
  {
    "type": "Feature",
    "geometry": {
      "type": "Point",
      "coordinates": [
        -73.3586,
        40.6925
      ]
    },
    "properties": {
      "name": "Babylon",
      "country": "United States",
      "population": 217860
    }
  },
  {
    "type": "Feature",
    "geometry": {
      "type": "Point",
      "coordinates": [
        -96.2959,
        30.5852
      ]
    },
    "properties": {
      "name": "College Station",
      "country": "United States",
      "population": 215768
    }
  },
  {
    "type": "Feature",
    "geometry": {
      "type": "Point",
      "coordinates": [
        -122.8959,
        47.0417
      ]
    },
    "properties": {
      "name": "Olympia",
      "country": "United States",
      "population": 215677
    }
  },
  {
    "type": "Feature",
    "geometry": {
      "type": "Point",
      "coordinates": [
        -79.9581,
        37.2785
      ]
    },
    "properties": {
      "name": "Roanoke",
      "country": "United States",
      "population": 214019
    }
  },
  {
    "type": "Feature",
    "geometry": {
      "type": "Point",
      "coordinates": [
        -70.2715,
        43.6773
      ]
    },
    "properties": {
      "name": "Portland",
      "country": "United States",
      "population": 213660
    }
  },
  {
    "type": "Feature",
    "geometry": {
      "type": "Point",
      "coordinates": [
        -117.4599,
        34.0968
      ]
    },
    "properties": {
      "name": "Fontana",
      "country": "United States",
      "population": 211921
    }
  },
  {
    "type": "Feature",
    "geometry": {
      "type": "Point",
      "coordinates": [
        -81.9251,
        34.9442
      ]
    },
    "properties": {
      "name": "Spartanburg",
      "country": "United States",
      "population": 210388
    }
  },
  {
    "type": "Feature",
    "geometry": {
      "type": "Point",
      "coordinates": [
        -117.2045,
        33.9244
      ]
    },
    "properties": {
      "name": "Moreno Valley",
      "country": "United States",
      "population": 210378
    }
  },
  {
    "type": "Feature",
    "geometry": {
      "type": "Point",
      "coordinates": [
        -96.8216,
        33.156
      ]
    },
    "properties": {
      "name": "Frisco",
      "country": "United States",
      "population": 210238
    }
  },
  {
    "type": "Feature",
    "geometry": {
      "type": "Point",
      "coordinates": [
        -73.8673,
        40.9466
      ]
    },
    "properties": {
      "name": "Yonkers",
      "country": "United States",
      "population": 209529
    }
  },
  {
    "type": "Feature",
    "geometry": {
      "type": "Point",
      "coordinates": [
        -118.8756,
        34.1914
      ]
    },
    "properties": {
      "name": "Thousand Oaks",
      "country": "United States",
      "population": 208302
    }
  },
  {
    "type": "Feature",
    "geometry": {
      "type": "Point",
      "coordinates": [
        -96.7311,
        43.5396
      ]
    },
    "properties": {
      "name": "Sioux Falls",
      "country": "United States",
      "population": 207795
    }
  },
  {
    "type": "Feature",
    "geometry": {
      "type": "Point",
      "coordinates": [
        -77.7217,
        39.6401
      ]
    },
    "properties": {
      "name": "Hagerstown",
      "country": "United States",
      "population": 206889
    }
  },
  {
    "type": "Feature",
    "geometry": {
      "type": "Point",
      "coordinates": [
        -87.5341,
        37.9881
      ]
    },
    "properties": {
      "name": "Evansville",
      "country": "United States",
      "population": 206418
    }
  },
  {
    "type": "Feature",
    "geometry": {
      "type": "Point",
      "coordinates": [
        -101.8316,
        35.1984
      ]
    },
    "properties": {
      "name": "Amarillo",
      "country": "United States",
      "population": 205100
    }
  },
  {
    "type": "Feature",
    "geometry": {
      "type": "Point",
      "coordinates": [
        -85.5882,
        42.2749
      ]
    },
    "properties": {
      "name": "Kalamazoo",
      "country": "United States",
      "population": 204408
    }
  },
  {
    "type": "Feature",
    "geometry": {
      "type": "Point",
      "coordinates": [
        -82.184,
        41.4409
      ]
    },
    "properties": {
      "name": "Lorain",
      "country": "United States",
      "population": 203802
    }
  },
  {
    "type": "Feature",
    "geometry": {
      "type": "Point",
      "coordinates": [
        -73.3823,
        40.8521
      ]
    },
    "properties": {
      "name": "Huntington",
      "country": "United States",
      "population": 203691
    }
  },
  {
    "type": "Feature",
    "geometry": {
      "type": "Point",
      "coordinates": [
        -94.8913,
        29.2484
      ]
    },
    "properties": {
      "name": "Galveston",
      "country": "United States",
      "population": 202810
    }
  },
  {
    "type": "Feature",
    "geometry": {
      "type": "Point",
      "coordinates": [
        -96.667,
        33.2016
      ]
    },
    "properties": {
      "name": "McKinney",
      "country": "United States",
      "population": 202314
    }
  },
  {
    "type": "Feature",
    "geometry": {
      "type": "Point",
      "coordinates": [
        -82.4345,
        38.4109
      ]
    },
    "properties": {
      "name": "Huntington",
      "country": "United States",
      "population": 201208
    }
  },
  {
    "type": "Feature",
    "geometry": {
      "type": "Point",
      "coordinates": [
        -116.5638,
        43.5844
      ]
    },
    "properties": {
      "name": "Nampa",
      "country": "United States",
      "population": 201129
    }
  },
  {
    "type": "Feature",
    "geometry": {
      "type": "Point",
      "coordinates": [
        -81.3223,
        35.741
      ]
    },
    "properties": {
      "name": "Hickory",
      "country": "United States",
      "population": 200500
    }
  },
  {
    "type": "Feature",
    "geometry": {
      "type": "Point",
      "coordinates": [
        -73.0361,
        41.5582
      ]
    },
    "properties": {
      "name": "Waterbury",
      "country": "United States",
      "population": 199965
    }
  },
  {
    "type": "Feature",
    "geometry": {
      "type": "Point",
      "coordinates": [
        -115.0487,
        36.1783
      ]
    },
    "properties": {
      "name": "Sunrise Manor",
      "country": "United States",
      "population": 199099
    }
  },
  {
    "type": "Feature",
    "geometry": {
      "type": "Point",
      "coordinates": [
        -97.0208,
        32.6871
      ]
    },
    "properties": {
      "name": "Grand Prairie",
      "country": "United States",
      "population": 198564
    }
  },
  {
    "type": "Feature",
    "geometry": {
      "type": "Point",
      "coordinates": [
        -82.1511,
        29.178
      ]
    },
    "properties": {
      "name": "Ocala",
      "country": "United States",
      "population": 197770
    }
  },
  {
    "type": "Feature",
    "geometry": {
      "type": "Point",
      "coordinates": [
        -97.1882,
        31.5599
      ]
    },
    "properties": {
      "name": "Waco",
      "country": "United States",
      "population": 197594
    }
  },
  {
    "type": "Feature",
    "geometry": {
      "type": "Point",
      "coordinates": [
        -94.687,
        38.887
      ]
    },
    "properties": {
      "name": "Overland Park",
      "country": "United States",
      "population": 197199
    }
  },
  {
    "type": "Feature",
    "geometry": {
      "type": "Point",
      "coordinates": [
        -77.4141,
        39.4337
      ]
    },
    "properties": {
      "name": "Frederick",
      "country": "United States",
      "population": 196743
    }
  },
  {
    "type": "Feature",
    "geometry": {
      "type": "Point",
      "coordinates": [
        -118.0018,
        33.696
      ]
    },
    "properties": {
      "name": "Huntington Beach",
      "country": "United States",
      "population": 196010
    }
  },
  {
    "type": "Feature",
    "geometry": {
      "type": "Point",
      "coordinates": [
        -119.7202,
        34.4285
      ]
    },
    "properties": {
      "name": "Santa Barbara",
      "country": "United States",
      "population": 194950
    }
  },
  {
    "type": "Feature",
    "geometry": {
      "type": "Point",
      "coordinates": [
        -112.2989,
        33.7843
      ]
    },
    "properties": {
      "name": "Peoria",
      "country": "United States",
      "population": 194338
    }
  },
  {
    "type": "Feature",
    "geometry": {
      "type": "Point",
      "coordinates": [
        -91.6783,
        41.9662
      ]
    },
    "properties": {
      "name": "Cedar Rapids",
      "country": "United States",
      "population": 192755
    }
  },
  {
    "type": "Feature",
    "geometry": {
      "type": "Point",
      "coordinates": [
        -122.5967,
        45.6366
      ]
    },
    "properties": {
      "name": "Vancouver",
      "country": "United States",
      "population": 192696
    }
  },
  {
    "type": "Feature",
    "geometry": {
      "type": "Point",
      "coordinates": [
        -118.2468,
        34.1819
      ]
    },
    "properties": {
      "name": "Glendale",
      "country": "United States",
      "population": 192270
    }
  },
  {
    "type": "Feature",
    "geometry": {
      "type": "Point",
      "coordinates": [
        -81.1854,
        35.2494
      ]
    },
    "properties": {
      "name": "Gastonia",
      "country": "United States",
      "population": 189767
    }
  },
  {
    "type": "Feature",
    "geometry": {
      "type": "Point",
      "coordinates": [
        -82.53,
        28.4798
      ]
    },
    "properties": {
      "name": "Spring Hill",
      "country": "United States",
      "population": 188743
    }
  },
  {
    "type": "Feature",
    "geometry": {
      "type": "Point",
      "coordinates": [
        -86.4121,
        35.849
      ]
    },
    "properties": {
      "name": "Murfreesboro",
      "country": "United States",
      "population": 187601
    }
  },
  {
    "type": "Feature",
    "geometry": {
      "type": "Point",
      "coordinates": [
        -111.9319,
        33.3881
      ]
    },
    "properties": {
      "name": "Tempe",
      "country": "United States",
      "population": 186419
    }
  },
  {
    "type": "Feature",
    "geometry": {
      "type": "Point",
      "coordinates": [
        -115.1355,
        36.0872
      ]
    },
    "properties": {
      "name": "Paradise",
      "country": "United States",
      "population": 186178
    }
  },
  {
    "type": "Feature",
    "geometry": {
      "type": "Point",
      "coordinates": [
        -76.5185,
        37.1051
      ]
    },
    "properties": {
      "name": "Newport News",
      "country": "United States",
      "population": 184774
    }
  },
  {
    "type": "Feature",
    "geometry": {
      "type": "Point",
      "coordinates": [
        -80.0733,
        42.1167
      ]
    },
    "properties": {
      "name": "Erie",
      "country": "United States",
      "population": 184332
    }
  },
  {
    "type": "Feature",
    "geometry": {
      "type": "Point",
      "coordinates": [
        -80.1464,
        26.1412
      ]
    },
    "properties": {
      "name": "Fort Lauderdale",
      "country": "United States",
      "population": 183032
    }
  },
  {
    "type": "Feature",
    "geometry": {
      "type": "Point",
      "coordinates": [
        -83.8294,
        34.2902
      ]
    },
    "properties": {
      "name": "Gainesville",
      "country": "United States",
      "population": 182116
    }
  },
  {
    "type": "Feature",
    "geometry": {
      "type": "Point",
      "coordinates": [
        -88.2902,
        41.7638
      ]
    },
    "properties": {
      "name": "Aurora",
      "country": "United States",
      "population": 179867
    }
  },
  {
    "type": "Feature",
    "geometry": {
      "type": "Point",
      "coordinates": [
        -82.3032,
        34.7821
      ]
    },
    "properties": {
      "name": "Mauldin",
      "country": "United States",
      "population": 179196
    }
  },
  {
    "type": "Feature",
    "geometry": {
      "type": "Point",
      "coordinates": [
        -117.6064,
        34.0393
      ]
    },
    "properties": {
      "name": "Ontario",
      "country": "United States",
      "population": 178347
    }
  },
  {
    "type": "Feature",
    "geometry": {
      "type": "Point",
      "coordinates": [
        -121.3842,
        38.4161
      ]
    },
    "properties": {
      "name": "Elk Grove",
      "country": "United States",
      "population": 177221
    }
  },
  {
    "type": "Feature",
    "geometry": {
      "type": "Point",
      "coordinates": [
        -85.6003,
        30.1995
      ]
    },
    "properties": {
      "name": "Panama City",
      "country": "United States",
      "population": 177125
    }
  },
  {
    "type": "Feature",
    "geometry": {
      "type": "Point",
      "coordinates": [
        -78.8195,
        35.7819
      ]
    },
    "properties": {
      "name": "Cary",
      "country": "United States",
      "population": 176686
    }
  },
  {
    "type": "Feature",
    "geometry": {
      "type": "Point",
      "coordinates": [
        -116.9969,
        33.7341
      ]
    },
    "properties": {
      "name": "Hemet",
      "country": "United States",
      "population": 176009
    }
  },
  {
    "type": "Feature",
    "geometry": {
      "type": "Point",
      "coordinates": [
        -73.4709,
        41.4015
      ]
    },
    "properties": {
      "name": "Danbury",
      "country": "United States",
      "population": 175074
    }
  },
  {
    "type": "Feature",
    "geometry": {
      "type": "Point",
      "coordinates": [
        -117.5667,
        34.1247
      ]
    },
    "properties": {
      "name": "Rancho Cucamonga",
      "country": "United States",
      "population": 174693
    }
  },
  {
    "type": "Feature",
    "geometry": {
      "type": "Point",
      "coordinates": [
        -121.6317,
        36.6883
      ]
    },
    "properties": {
      "name": "Salinas",
      "country": "United States",
      "population": 172995
    }
  },
  {
    "type": "Feature",
    "geometry": {
      "type": "Point",
      "coordinates": [
        -117.3083,
        33.2247
      ]
    },
    "properties": {
      "name": "Oceanside",
      "country": "United States",
      "population": 172542
    }
  },
  {
    "type": "Feature",
    "geometry": {
      "type": "Point",
      "coordinates": [
        -122.2342,
        38.1125
      ]
    },
    "properties": {
      "name": "Vallejo",
      "country": "United States",
      "population": 171414
    }
  },
  {
    "type": "Feature",
    "geometry": {
      "type": "Point",
      "coordinates": [
        -79.9937,
        35.991
      ]
    },
    "properties": {
      "name": "High Point",
      "country": "United States",
      "population": 171342
    }
  },
  {
    "type": "Feature",
    "geometry": {
      "type": "Point",
      "coordinates": [
        -117.9601,
        33.7787
      ]
    },
    "properties": {
      "name": "Garden Grove",
      "country": "United States",
      "population": 170603
    }
  },
  {
    "type": "Feature",
    "geometry": {
      "type": "Point",
      "coordinates": [
        -80.3382,
        26.0128
      ]
    },
    "properties": {
      "name": "Pembroke Pines",
      "country": "United States",
      "population": 170557
    }
  },
  {
    "type": "Feature",
    "geometry": {
      "type": "Point",
      "coordinates": [
        -118.1753,
        34.6935
      ]
    },
    "properties": {
      "name": "Lancaster",
      "country": "United States",
      "population": 170013
    }
  },
  {
    "type": "Feature",
    "geometry": {
      "type": "Point",
      "coordinates": [
        -122.1561,
        48.0809
      ]
    },
    "properties": {
      "name": "Marysville",
      "country": "United States",
      "population": 168664
    }
  },
  {
    "type": "Feature",
    "geometry": {
      "type": "Point",
      "coordinates": [
        -77.4872,
        38.2992
      ]
    },
    "properties": {
      "name": "Fredericksburg",
      "country": "United States",
      "population": 166746
    }
  },
  {
    "type": "Feature",
    "geometry": {
      "type": "Point",
      "coordinates": [
        -119.3269,
        36.3276
      ]
    },
    "properties": {
      "name": "Visalia",
      "country": "United States",
      "population": 166273
    }
  },
  {
    "type": "Feature",
    "geometry": {
      "type": "Point",
      "coordinates": [
        -87.5268,
        33.2348
      ]
    },
    "properties": {
      "name": "Tuscaloosa",
      "country": "United States",
      "population": 166253
    }
  },
  {
    "type": "Feature",
    "geometry": {
      "type": "Point",
      "coordinates": [
        -118.1057,
        34.5944
      ]
    },
    "properties": {
      "name": "Palmdale",
      "country": "United States",
      "population": 165487
    }
  },
  {
    "type": "Feature",
    "geometry": {
      "type": "Point",
      "coordinates": [
        -122.0346,
        36.9789
      ]
    },
    "properties": {
      "name": "Santa Cruz",
      "country": "United States",
      "population": 165263
    }
  },
  {
    "type": "Feature",
    "geometry": {
      "type": "Point",
      "coordinates": [
        -122.854,
        42.3372
      ]
    },
    "properties": {
      "name": "Medford",
      "country": "United States",
      "population": 164628
    }
  },
  {
    "type": "Feature",
    "geometry": {
      "type": "Point",
      "coordinates": [
        -72.0882,
        41.5495
      ]
    },
    "properties": {
      "name": "Norwich",
      "country": "United States",
      "population": 163299
    }
  },
  {
    "type": "Feature",
    "geometry": {
      "type": "Point",
      "coordinates": [
        -120.4779,
        37.3057
      ]
    },
    "properties": {
      "name": "Merced",
      "country": "United States",
      "population": 163257
    }
  },
  {
    "type": "Feature",
    "geometry": {
      "type": "Point",
      "coordinates": [
        -71.4447,
        42.9848
      ]
    },
    "properties": {
      "name": "Manchester",
      "country": "United States",
      "population": 162716
    }
  },
  {
    "type": "Feature",
    "geometry": {
      "type": "Point",
      "coordinates": [
        -102.3448,
        31.8801
      ]
    },
    "properties": {
      "name": "Odessa",
      "country": "United States",
      "population": 162648
    }
  },
  {
    "type": "Feature",
    "geometry": {
      "type": "Point",
      "coordinates": [
        -86.2562,
        43.2281
      ]
    },
    "properties": {
      "name": "Muskegon",
      "country": "United States",
      "population": 162458
    }
  },
  {
    "type": "Feature",
    "geometry": {
      "type": "Point",
      "coordinates": [
        -81.8962,
        28.7672
      ]
    },
    "properties": {
      "name": "Leesburg",
      "country": "United States",
      "population": 161515
    }
  },
  {
    "type": "Feature",
    "geometry": {
      "type": "Point",
      "coordinates": [
        -86.8593,
        40.3991
      ]
    },
    "properties": {
      "name": "Lafayette",
      "country": "United States",
      "population": 160373
    }
  },
  {
    "type": "Feature",
    "geometry": {
      "type": "Point",
      "coordinates": [
        -122.0766,
        37.6328
      ]
    },
    "properties": {
      "name": "Hayward",
      "country": "United States",
      "population": 159201
    }
  },
  {
    "type": "Feature",
    "geometry": {
      "type": "Point",
      "coordinates": [
        -117.5649,
        33.8616
      ]
    },
    "properties": {
      "name": "Corona",
      "country": "United States",
      "population": 158839
    }
  },
  {
    "type": "Feature",
    "geometry": {
      "type": "Point",
      "coordinates": [
        -74.1624,
        40.9147
      ]
    },
    "properties": {
      "name": "Paterson",
      "country": "United States",
      "population": 157660
    }
  },
  {
    "type": "Feature",
    "geometry": {
      "type": "Point",
      "coordinates": [
        -77.0861,
        38.8185
      ]
    },
    "properties": {
      "name": "Alexandria",
      "country": "United States",
      "population": 156788
    }
  },
  {
    "type": "Feature",
    "geometry": {
      "type": "Point",
      "coordinates": [
        -83.6974,
        32.8065
      ]
    },
    "properties": {
      "name": "Macon",
      "country": "United States",
      "population": 156543
    }
  },
  {
    "type": "Feature",
    "geometry": {
      "type": "Point",
      "coordinates": [
        -105.1172,
        39.6977
      ]
    },
    "properties": {
      "name": "Lakewood",
      "country": "United States",
      "population": 156309
    }
  },
  {
    "type": "Feature",
    "geometry": {
      "type": "Point",
      "coordinates": [
        -89.654,
        39.7709
      ]
    },
    "properties": {
      "name": "Springfield",
      "country": "United States",
      "population": 156240
    }
  },
  {
    "type": "Feature",
    "geometry": {
      "type": "Point",
      "coordinates": [
        -94.7443,
        39.1235
      ]
    },
    "properties": {
      "name": "Kansas City",
      "country": "United States",
      "population": 154776
    }
  },
  {
    "type": "Feature",
    "geometry": {
      "type": "Point",
      "coordinates": [
        -79.4685,
        36.076
      ]
    },
    "properties": {
      "name": "Burlington",
      "country": "United States",
      "population": 154504
    }
  },
  {
    "type": "Feature",
    "geometry": {
      "type": "Point",
      "coordinates": [
        -83.6527,
        32.5961
      ]
    },
    "properties": {
      "name": "Warner Robins",
      "country": "United States",
      "population": 154327
    }
  },
  {
    "type": "Feature",
    "geometry": {
      "type": "Point",
      "coordinates": [
        -122.0255,
        37.3836
      ]
    },
    "properties": {
      "name": "Sunnyvale",
      "country": "United States",
      "population": 153455
    }
  },
  {
    "type": "Feature",
    "geometry": {
      "type": "Point",
      "coordinates": [
        -80.1679,
        26.0293
      ]
    },
    "properties": {
      "name": "Hollywood",
      "country": "United States",
      "population": 152935
    }
  },
  {
    "type": "Feature",
    "geometry": {
      "type": "Point",
      "coordinates": [
        -121.3196,
        38.7703
      ]
    },
    "properties": {
      "name": "Roseville",
      "country": "United States",
      "population": 152438
    }
  },
  {
    "type": "Feature",
    "geometry": {
      "type": "Point",
      "coordinates": [
        -70.9428,
        41.6697
      ]
    },
    "properties": {
      "name": "New Bedford",
      "country": "United States",
      "population": 152104
    }
  },
  {
    "type": "Feature",
    "geometry": {
      "type": "Point",
      "coordinates": [
        -83.6526,
        42.4614
      ]
    },
    "properties": {
      "name": "South Lyon",
      "country": "United States",
      "population": 151231
    }
  },
  {
    "type": "Feature",
    "geometry": {
      "type": "Point",
      "coordinates": [
        -122.1535,
        47.5951
      ]
    },
    "properties": {
      "name": "Bellevue",
      "country": "United States",
      "population": 151199
    }
  },
  {
    "type": "Feature",
    "geometry": {
      "type": "Point",
      "coordinates": [
        -122.0335,
        38.2583
      ]
    },
    "properties": {
      "name": "Fairfield",
      "country": "United States",
      "population": 150794
    }
  },
  {
    "type": "Feature",
    "geometry": {
      "type": "Point",
      "coordinates": [
        -75.9093,
        42.1014
      ]
    },
    "properties": {
      "name": "Binghamton",
      "country": "United States",
      "population": 150564
    }
  },
  {
    "type": "Feature",
    "geometry": {
      "type": "Point",
      "coordinates": [
        -95.6955,
        39.0346
      ]
    },
    "properties": {
      "name": "Topeka",
      "country": "United States",
      "population": 150343
    }
  },
  {
    "type": "Feature",
    "geometry": {
      "type": "Point",
      "coordinates": [
        -74.1072,
        41.1404
      ]
    },
    "properties": {
      "name": "Ramapo",
      "country": "United States",
      "population": 150225
    }
  },
  {
    "type": "Feature",
    "geometry": {
      "type": "Point",
      "coordinates": [
        -117.0723,
        33.1348
      ]
    },
    "properties": {
      "name": "Escondido",
      "country": "United States",
      "population": 149913
    }
  },
  {
    "type": "Feature",
    "geometry": {
      "type": "Point",
      "coordinates": [
        -88.1499,
        41.5188
      ]
    },
    "properties": {
      "name": "Joliet",
      "country": "United States",
      "population": 149785
    }
  },
  {
    "type": "Feature",
    "geometry": {
      "type": "Point",
      "coordinates": [
        -112.4515,
        33.6815
      ]
    },
    "properties": {
      "name": "Surprise",
      "country": "United States",
      "population": 149519
    }
  },
  {
    "type": "Feature",
    "geometry": {
      "type": "Point",
      "coordinates": [
        -88.1659,
        41.748
      ]
    },
    "properties": {
      "name": "Naperville",
      "country": "United States",
      "population": 149424
    }
  },
  {
    "type": "Feature",
    "geometry": {
      "type": "Point",
      "coordinates": [
        -95.1498,
        29.6575
      ]
    },
    "properties": {
      "name": "Pasadena",
      "country": "United States",
      "population": 149345
    }
  },
  {
    "type": "Feature",
    "geometry": {
      "type": "Point",
      "coordinates": [
        -96.5865,
        32.7602
      ]
    },
    "properties": {
      "name": "Mesquite",
      "country": "United States",
      "population": 148848
    }
  },
  {
    "type": "Feature",
    "geometry": {
      "type": "Point",
      "coordinates": [
        -88.2737,
        40.1142
      ]
    },
    "properties": {
      "name": "Champaign",
      "country": "United States",
      "population": 148477
    }
  },
  {
    "type": "Feature",
    "geometry": {
      "type": "Point",
      "coordinates": [
        -117.7626,
        34.0585
      ]
    },
    "properties": {
      "name": "Pomona",
      "country": "United States",
      "population": 148391
    }
  },
  {
    "type": "Feature",
    "geometry": {
      "type": "Point",
      "coordinates": [
        -90.7059,
        29.58
      ]
    },
    "properties": {
      "name": "Houma",
      "country": "United States",
      "population": 147841
    }
  },
  {
    "type": "Feature",
    "geometry": {
      "type": "Point",
      "coordinates": [
        -83.3689,
        33.9508
      ]
    },
    "properties": {
      "name": "Athens",
      "country": "United States",
      "population": 147368
    }
  },
  {
    "type": "Feature",
    "geometry": {
      "type": "Point",
      "coordinates": [
        -113.5752,
        37.0758
      ]
    },
    "properties": {
      "name": "St. George",
      "country": "United States",
      "population": 147347
    }
  },
  {
    "type": "Feature",
    "geometry": {
      "type": "Point",
      "coordinates": [
        -94.1451,
        30.0849
      ]
    },
    "properties": {
      "name": "Beaumont",
      "country": "United States",
      "population": 146554
    }
  },
  {
    "type": "Feature",
    "geometry": {
      "type": "Point",
      "coordinates": [
        -85.9627,
        41.6916
      ]
    },
    "properties": {
      "name": "Elkhart",
      "country": "United States",
      "population": 146511
    }
  },
  {
    "type": "Feature",
    "geometry": {
      "type": "Point",
      "coordinates": [
        -93.2111,
        30.201
      ]
    },
    "properties": {
      "name": "Lake Charles",
      "country": "United States",
      "population": 145110
    }
  },
  {
    "type": "Feature",
    "geometry": {
      "type": "Point",
      "coordinates": [
        -120.4431,
        34.9333
      ]
    },
    "properties": {
      "name": "Santa Maria",
      "country": "United States",
      "population": 144857
    }
  },
  {
    "type": "Feature",
    "geometry": {
      "type": "Point",
      "coordinates": [
        -114.5491,
        32.5995
      ]
    },
    "properties": {
      "name": "Yuma",
      "country": "United States",
      "population": 144509
    }
  },
  {
    "type": "Feature",
    "geometry": {
      "type": "Point",
      "coordinates": [
        -94.82,
        38.8833
      ]
    },
    "properties": {
      "name": "Olathe",
      "country": "United States",
      "population": 143720
    }
  },
  {
    "type": "Feature",
    "geometry": {
      "type": "Point",
      "coordinates": [
        -102.1147,
        32.0243
      ]
    },
    "properties": {
      "name": "Midland",
      "country": "United States",
      "population": 143714
    }
  },
  {
    "type": "Feature",
    "geometry": {
      "type": "Point",
      "coordinates": [
        -104.7706,
        40.4152
      ]
    },
    "properties": {
      "name": "Greeley",
      "country": "United States",
      "population": 143554
    }
  },
  {
    "type": "Feature",
    "geometry": {
      "type": "Point",
      "coordinates": [
        -118.3416,
        33.8346
      ]
    },
    "properties": {
      "name": "Torrance",
      "country": "United States",
      "population": 143499
    }
  },
  {
    "type": "Feature",
    "geometry": {
      "type": "Point",
      "coordinates": [
        -104.9438,
        39.9197
      ]
    },
    "properties": {
      "name": "Thornton",
      "country": "United States",
      "population": 142878
    }
  },
  {
    "type": "Feature",
    "geometry": {
      "type": "Point",
      "coordinates": [
        -106.7893,
        32.3265
      ]
    },
    "properties": {
      "name": "Las Cruces",
      "country": "United States",
      "population": 142432
    }
  },
  {
    "type": "Feature",
    "geometry": {
      "type": "Point",
      "coordinates": [
        -92.3268,
        38.9472
      ]
    },
    "properties": {
      "name": "Columbia",
      "country": "United States",
      "population": 141811
    }
  },
  {
    "type": "Feature",
    "geometry": {
      "type": "Point",
      "coordinates": [
        -117.9279,
        33.8841
      ]
    },
    "properties": {
      "name": "Fullerton",
      "country": "United States",
      "population": 141278
    }
  },
  {
    "type": "Feature",
    "geometry": {
      "type": "Point",
      "coordinates": [
        -108.5673,
        39.0877
      ]
    },
    "properties": {
      "name": "Grand Junction",
      "country": "United States",
      "population": 141008
    }
  },
  {
    "type": "Feature",
    "geometry": {
      "type": "Point",
      "coordinates": [
        -90.178,
        29.9977
      ]
    },
    "properties": {
      "name": "Metairie",
      "country": "United States",
      "population": 138995
    }
  },
  {
    "type": "Feature",
    "geometry": {
      "type": "Point",
      "coordinates": [
        -117.8218,
        33.8038
      ]
    },
    "properties": {
      "name": "Orange",
      "country": "United States",
      "population": 138723
    }
  },
  {
    "type": "Feature",
    "geometry": {
      "type": "Point",
      "coordinates": [
        -83.027,
        42.4934
      ]
    },
    "properties": {
      "name": "Warren",
      "country": "United States",
      "population": 138128
    }
  },
  {
    "type": "Feature",
    "geometry": {
      "type": "Point",
      "coordinates": [
        -112.0123,
        40.6886
      ]
    },
    "properties": {
      "name": "West Valley City",
      "country": "United States",
      "population": 137955
    }
  },
  {
    "type": "Feature",
    "geometry": {
      "type": "Point",
      "coordinates": [
        -76.363,
        37.0551
      ]
    },
    "properties": {
      "name": "Hampton",
      "country": "United States",
      "population": 137334
    }
  },
  {
    "type": "Feature",
    "geometry": {
      "type": "Point",
      "coordinates": [
        -74.2031,
        40.0763
      ]
    },
    "properties": {
      "name": "Lakewood",
      "country": "United States",
      "population": 136655
    }
  },
  {
    "type": "Feature",
    "geometry": {
      "type": "Point",
      "coordinates": [
        -118.139,
        34.1597
      ]
    },
    "properties": {
      "name": "Pasadena",
      "country": "United States",
      "population": 136462
    }
  },
  {
    "type": "Feature",
    "geometry": {
      "type": "Point",
      "coordinates": [
        -80.3351,
        25.9773
      ]
    },
    "properties": {
      "name": "Miramar",
      "country": "United States",
      "population": 135986
    }
  },
  {
    "type": "Feature",
    "geometry": {
      "type": "Point",
      "coordinates": [
        -74.1913,
        40.6658
      ]
    },
    "properties": {
      "name": "Elizabeth",
      "country": "United States",
      "population": 135887
    }
  },
  {
    "type": "Feature",
    "geometry": {
      "type": "Point",
      "coordinates": [
        -73.5585,
        41.1039
      ]
    },
    "properties": {
      "name": "Stamford",
      "country": "United States",
      "population": 135806
    }
  },
  {
    "type": "Feature",
    "geometry": {
      "type": "Point",
      "coordinates": [
        -87.8135,
        42.7274
      ]
    },
    "properties": {
      "name": "Racine",
      "country": "United States",
      "population": 135512
    }
  },
  {
    "type": "Feature",
    "geometry": {
      "type": "Point",
      "coordinates": [
        -122.2128,
        47.3887
      ]
    },
    "properties": {
      "name": "Kent",
      "country": "United States",
      "population": 135015
    }
  },
  {
    "type": "Feature",
    "geometry": {
      "type": "Point",
      "coordinates": [
        -120.5496,
        46.5923
      ]
    },
    "properties": {
      "name": "Yakima",
      "country": "United States",
      "population": 134003
    }
  },
  {
    "type": "Feature",
    "geometry": {
      "type": "Point",
      "coordinates": [
        -80.2591,
        26.2702
      ]
    },
    "properties": {
      "name": "Coral Springs",
      "country": "United States",
      "population": 133962
    }
  },
  {
    "type": "Feature",
    "geometry": {
      "type": "Point",
      "coordinates": [
        -83.0305,
        42.5809
      ]
    },
    "properties": {
      "name": "Sterling Heights",
      "country": "United States",
      "population": 133473
    }
  },
  {
    "type": "Feature",
    "geometry": {
      "type": "Point",
      "coordinates": [
        -108.5526,
        45.7891
      ]
    },
    "properties": {
      "name": "Billings",
      "country": "United States",
      "population": 133173
    }
  },
  {
    "type": "Feature",
    "geometry": {
      "type": "Point",
      "coordinates": [
        -88.9703,
        40.4757
      ]
    },
    "properties": {
      "name": "Bloomington",
      "country": "United States",
      "population": 133107
    }
  },
  {
    "type": "Feature",
    "geometry": {
      "type": "Point",
      "coordinates": [
        -81.6322,
        38.3484
      ]
    },
    "properties": {
      "name": "Charleston",
      "country": "United States",
      "population": 133045
    }
  },
  {
    "type": "Feature",
    "geometry": {
      "type": "Point",
      "coordinates": [
        -96.8999,
        32.989
      ]
    },
    "properties": {
      "name": "Carrollton",
      "country": "United States",
      "population": 132741
    }
  },
  {
    "type": "Feature",
    "geometry": {
      "type": "Point",
      "coordinates": [
        -95.3062,
        32.3184
      ]
    },
    "properties": {
      "name": "Tyler",
      "country": "United States",
      "population": 131037
    }
  },
  {
    "type": "Feature",
    "geometry": {
      "type": "Point",
      "coordinates": [
        -78.757,
        43.0117
      ]
    },
    "properties": {
      "name": "Amherst",
      "country": "United States",
      "population": 130209
    }
  },
  {
    "type": "Feature",
    "geometry": {
      "type": "Point",
      "coordinates": [
        -91.5303,
        41.6559
      ]
    },
    "properties": {
      "name": "Iowa City",
      "country": "United States",
      "population": 129897
    }
  },
  {
    "type": "Feature",
    "geometry": {
      "type": "Point",
      "coordinates": [
        -82.3806,
        36.3406
      ]
    },
    "properties": {
      "name": "Johnson City",
      "country": "United States",
      "population": 129818
    }
  },
  {
    "type": "Feature",
    "geometry": {
      "type": "Point",
      "coordinates": [
        -121.968,
        37.3646
      ]
    },
    "properties": {
      "name": "Santa Clara",
      "country": "United States",
      "population": 129239
    }
  },
  {
    "type": "Feature",
    "geometry": {
      "type": "Point",
      "coordinates": [
        -122.469,
        48.7548
      ]
    },
    "properties": {
      "name": "Bellingham",
      "country": "United States",
      "population": 128737
    }
  },
  {
    "type": "Feature",
    "geometry": {
      "type": "Point",
      "coordinates": [
        -97.3471,
        35.2335
      ]
    },
    "properties": {
      "name": "Norman",
      "country": "United States",
      "population": 128714
    }
  },
  {
    "type": "Feature",
    "geometry": {
      "type": "Point",
      "coordinates": [
        -116.7936,
        47.704
      ]
    },
    "properties": {
      "name": "Coeur d'Alene",
      "country": "United States",
      "population": 128680
    }
  },
  {
    "type": "Feature",
    "geometry": {
      "type": "Point",
      "coordinates": [
        -94.3695,
        35.3495
      ]
    },
    "properties": {
      "name": "Fort Smith",
      "country": "United States",
      "population": 128384
    }
  },
  {
    "type": "Feature",
    "geometry": {
      "type": "Point",
      "coordinates": [
        -96.9815,
        33.0454
      ]
    },
    "properties": {
      "name": "Lewisville",
      "country": "United States",
      "population": 128313
    }
  },
  {
    "type": "Feature",
    "geometry": {
      "type": "Point",
      "coordinates": [
        -75.5202,
        39.161
      ]
    },
    "properties": {
      "name": "Dover",
      "country": "United States",
      "population": 128045
    }
  },
  {
    "type": "Feature",
    "geometry": {
      "type": "Point",
      "coordinates": [
        -121.6383,
        39.1357
      ]
    },
    "properties": {
      "name": "Yuba City",
      "country": "United States",
      "population": 127854
    }
  },
  {
    "type": "Feature",
    "geometry": {
      "type": "Point",
      "coordinates": [
        -81.6388,
        26.612
      ]
    },
    "properties": {
      "name": "Lehigh Acres",
      "country": "United States",
      "population": 127391
    }
  },
  {
    "type": "Feature",
    "geometry": {
      "type": "Point",
      "coordinates": [
        -99.7384,
        32.4543
      ]
    },
    "properties": {
      "name": "Abilene",
      "country": "United States",
      "population": 127130
    }
  },
  {
    "type": "Feature",
    "geometry": {
      "type": "Point",
      "coordinates": [
        -118.749,
        34.2663
      ]
    },
    "properties": {
      "name": "Simi Valley",
      "country": "United States",
      "population": 126503
    }
  },
  {
    "type": "Feature",
    "geometry": {
      "type": "Point",
      "coordinates": [
        -95.3218,
        29.5581
      ]
    },
    "properties": {
      "name": "Pearland",
      "country": "United States",
      "population": 125983
    }
  },
  {
    "type": "Feature",
    "geometry": {
      "type": "Point",
      "coordinates": [
        -87.8773,
        42.5865
      ]
    },
    "properties": {
      "name": "Kenosha",
      "country": "United States",
      "population": 125807
    }
  },
  {
    "type": "Feature",
    "geometry": {
      "type": "Point",
      "coordinates": [
        -116.3977,
        43.6116
      ]
    },
    "properties": {
      "name": "Meridian",
      "country": "United States",
      "population": 124865
    }
  },
  {
    "type": "Feature",
    "geometry": {
      "type": "Point",
      "coordinates": [
        -97.6642,
        30.527
      ]
    },
    "properties": {
      "name": "Round Rock",
      "country": "United States",
      "population": 124288
    }
  },
  {
    "type": "Feature",
    "geometry": {
      "type": "Point",
      "coordinates": [
        -76.9194,
        38.6085
      ]
    },
    "properties": {
      "name": "Waldorf",
      "country": "United States",
      "population": 124186
    }
  },
  {
    "type": "Feature",
    "geometry": {
      "type": "Point",
      "coordinates": [
        -97.3891,
        31.1068
      ]
    },
    "properties": {
      "name": "Temple",
      "country": "United States",
      "population": 123932
    }
  },
  {
    "type": "Feature",
    "geometry": {
      "type": "Point",
      "coordinates": [
        -79.1909,
        37.4003
      ]
    },
    "properties": {
      "name": "Lynchburg",
      "country": "United States",
      "population": 123662
    }
  },
  {
    "type": "Feature",
    "geometry": {
      "type": "Point",
      "coordinates": [
        -92.478,
        44.0154
      ]
    },
    "properties": {
      "name": "Rochester",
      "country": "United States",
      "population": 123252
    }
  },
  {
    "type": "Feature",
    "geometry": {
      "type": "Point",
      "coordinates": [
        -111.8422,
        41.7399
      ]
    },
    "properties": {
      "name": "Logan",
      "country": "United States",
      "population": 122915
    }
  },
  {
    "type": "Feature",
    "geometry": {
      "type": "Point",
      "coordinates": [
        -105.151,
        39.832
      ]
    },
    "properties": {
      "name": "Arvada",
      "country": "United States",
      "population": 122835
    }
  },
  {
    "type": "Feature",
    "geometry": {
      "type": "Point",
      "coordinates": [
        -119.683,
        36.8278
      ]
    },
    "properties": {
      "name": "Clovis",
      "country": "United States",
      "population": 122719
    }
  },
  {
    "type": "Feature",
    "geometry": {
      "type": "Point",
      "coordinates": [
        -94.3501,
        39.0871
      ]
    },
    "properties": {
      "name": "Independence",
      "country": "United States",
      "population": 121944
    }
  },
  {
    "type": "Feature",
    "geometry": {
      "type": "Point",
      "coordinates": [
        -122.365,
        40.5698
      ]
    },
    "properties": {
      "name": "Redding",
      "country": "United States",
      "population": 120849
    }
  },
  {
    "type": "Feature",
    "geometry": {
      "type": "Point",
      "coordinates": [
        -77.376,
        35.5943
      ]
    },
    "properties": {
      "name": "Greenville",
      "country": "United States",
      "population": 120595
    }
  },
  {
    "type": "Feature",
    "geometry": {
      "type": "Point",
      "coordinates": [
        -92.1393,
        46.7756
      ]
    },
    "properties": {
      "name": "Duluth",
      "country": "United States",
      "population": 120443
    }
  },
  {
    "type": "Feature",
    "geometry": {
      "type": "Point",
      "coordinates": [
        -122.276,
        37.8722
      ]
    },
    "properties": {
      "name": "Berkeley",
      "country": "United States",
      "population": 120223
    }
  },
  {
    "type": "Feature",
    "geometry": {
      "type": "Point",
      "coordinates": [
        -105.2524,
        40.0248
      ]
    },
    "properties": {
      "name": "Boulder",
      "country": "United States",
      "population": 120121
    }
  },
  {
    "type": "Feature",
    "geometry": {
      "type": "Point",
      "coordinates": [
        -104.6114,
        38.2701
      ]
    },
    "properties": {
      "name": "Pueblo",
      "country": "United States",
      "population": 120020
    }
  },
  {
    "type": "Feature",
    "geometry": {
      "type": "Point",
      "coordinates": [
        -80.132,
        26.7469
      ]
    },
    "properties": {
      "name": "West Palm Beach",
      "country": "United States",
      "population": 119508
    }
  },
  {
    "type": "Feature",
    "geometry": {
      "type": "Point",
      "coordinates": [
        -73.2316,
        44.4876
      ]
    },
    "properties": {
      "name": "Burlington",
      "country": "United States",
      "population": 118409
    }
  },
  {
    "type": "Feature",
    "geometry": {
      "type": "Point",
      "coordinates": [
        -121.8199,
        36.6224
      ]
    },
    "properties": {
      "name": "Seaside",
      "country": "United States",
      "population": 118398
    }
  },
  {
    "type": "Feature",
    "geometry": {
      "type": "Point",
      "coordinates": [
        -96.7093,
        32.9716
      ]
    },
    "properties": {
      "name": "Richardson",
      "country": "United States",
      "population": 118269
    }
  },
  {
    "type": "Feature",
    "geometry": {
      "type": "Point",
      "coordinates": [
        -71.1185,
        42.3759
      ]
    },
    "properties": {
      "name": "Cambridge",
      "country": "United States",
      "population": 117794
    }
  },
  {
    "type": "Feature",
    "geometry": {
      "type": "Point",
      "coordinates": [
        -92.0774,
        32.5185
      ]
    },
    "properties": {
      "name": "Monroe",
      "country": "United States",
      "population": 117507
    }
  },